{
  "1": {
    "name": "Gatehouse and Main Reception",
    "label": "Gatehouse",
    "lat": 51.58739793181052,
    "lng": -3.3269874462503193
  },
  "2": {
    "name": "T\u0177 Crawshay",
    "label": "T\u0177",
    "lat": 51.58828076912353,
    "lng": -3.3260604944734555
  },
  "3": {
    "name": "Brecon",
    "label": "Brecon",
    "lat": 51.58888686088289,
    "lng": -3.325718141945263,
    "room_code": "B"
  },
  "4": {
    "name": "New Development",
    "label": "New",
    "lat": 51.58909978859545,
    "lng": -3.326536563754585
  },
  "5": {
    "name": "Glynneath",
    "label": "Glynneath",
    "lat": 51.58909661057725,
    "lng":   -3.327830693240577,
    "room_code": "G"
  },
  "6": {
    "name": "Aerospace Centre",
    "label": "Aerospace",
    "lat": 51.588866492466494,
    "lng":  -3.3277740886786273
  },
  "7": {
    "name": "Hirwaun / Health Centre / International Zone",
    "label": "Hirwaun",
    "lat": 51.589626240041774,
    "lng":  -3.328651731271164,
    "room_code": "H"
  },
  "8": {
    "name": "Johnstown",
    "label": "Johnstown",
    "lat": 51.590170807355726, 
    "lng": -3.3294509611710357,
    "room_code": "J"
  },
  "9": {
    "name": "Ferndale",
    "label": "Ferndale",
    "lat": 51.589914273548374,
    "lng":  -3.3273448013737386,
    "room_code": "F"
  },
  "10": {
    "name": "The Meeting House (Chaplaincy)",
    "label": "Meeting_house",
    "lat": 51.59006171756487,
    "lng":  -3.3278326282304107
  },
  "11": {
    "name": "Conference Centre",
    "label": "Conference",
    "lat": 51.58874835677468,
    "lng":  -3.329344452009325,
    "room_code": "CC"
  },
  "12": {
    "name": "Students\u2019 Union and Shop",
    "label": "Students\u2019",
    "lat": 51.58791431404321,
    "lng":  -3.328074662729494
  },
  "13": {
    "name": "USW FitZone",
    "label": "USW",
    "lat": 51.588197194188204, 
    "lng": -3.3285636837891834
  },
  "14": {
    "name": "Stilts Food Court",
    "label": "Stilts",
    "lat": 51.58908613557259, 
    "lng": -3.3290971105984264
  },
  "15": {
    "name": "Childcare Services",
    "label": "Childcare",
    "lat": 51.590222755434596, 
    "lng": -3.3304705679987743
  },
  "16": {
    "name": "Library and Student Centre",
    "label": "Library",
    "lat": 51.5895515954736, 
    "lng": -3.3279839659990755,
    "room_code": "L"
  },
  "17": {
    "name": "USW Print and Design",
    "label": "Print_and_Design",
    "lat": 51.589643437143366, 
    "lng": -3.3274037562345877
  },
  "18": {
    "name": "Prayer Room",
    "label": "Prayer",
    "lat": 51.588165005129284, 
    "lng": -3.326494312204815
  },
  "19": {
    "name": "Accommodation Reception",
    "label": "Accommodation",
    "lat": 51.58921720467508,
    "lng":  -3.3318367029283777,
    "room_code": "AL"
  },
  "20": {
    "name": "Glamorgan Court A-V",
    "label": "Glamorgan",
    "lat": 51.58997172323168,
    "lng":  -3.3321460356815678
  },
  "21": {
    "name": "Mountain Halls",
    "label": "Mountain",
    "lat": 51.588182179482374, 
    "lng": -3.330804622699398
  },
  "22": {
    "name": "Amphitheatre and The Hub",
    "label": "Amphitheatre",
    "lat": 51.588744615113825, 
    "lng": -3.3309856723043536
  },
  "23": {
    "name": "Centre for Automotive and Power Systems Engineering",
    "label": "Centre",
    "lat": 51.589932999870044, 
    "lng": -3.3265900604633147
  },
  "24": {
    "name": "Eynon",
    "label": "Eynon",
    "lat": 51.58968961945182, 
    "lng": -3.3262395599981742
  },
  "25": {
    "name": "Postgraduate Centre",
    "label": "Postgraduate",
    "lat": 51.58807558998688,
    "lng":  -3.326095236269727
  },
  "26": {
    "name": "Prospect House",
    "label": "Prospect",
    "lat": 51.59104100481497, 
    "lng": -3.3254148529961585
  },
  "27": {
    "name": "Innovation House",
    "label": "Innovation",
    "lat": 51.59153735662534, 
    "lng": -3.3255540222984936
  },
  "28": {
    "name": "Endeavour House",
    "label": "Endeavour",
    "lat": 51.59201448970466, 
    "lng": -3.3256158753217537
  },
  "29": {
    "name": "Welsh Institute of Chiropractic",
    "label": "Welsh",
    "lat": 51.5925012243263, 
    "lng": -3.325796279972929
  },
  "100": {
    "name": "Registration",
    "label": "Registration",
    "welsh_name": "Cofrestru",
    "lat": 51.58841185085349,
    "lng":  -3.3258942139417798
  },
  "101": {
    "name": "Information Point",
    "label": "Information",
    "welsh_name": "Pwynt Gwybodaeth",
    "lat": 51.588450280508134, 
    "lng": -3.326229251151106
  },
  "102": {
    "name": "Open Day Parking",
    "label": "Open",
    "welsh_name": "Parcio Diwrnod Agored",
    "lat": 51.588355091053415, 
    "lng": -3.32468882476079
  },
  "103": {
    "name": "Disabled Parking",
    "label": "Disabled",
    "welsh_name": "Parcio i\u2019r Anabl",
    "lat": 51.58762573608722, 
    "lng": -3.327713995152102
  },
  "104": {
    "name": "Pedestrian Routes",
    "label": "Pedestrian",
    "welsh_name": "Llwybrau i Gerddwyr",
    "lat": 51.589306,
    "lng": -3.330351
  },
  "105": {
    "name": "Tours",
    "label": "Tours",
    "welsh_name": "Teithiau",
    "lat": 51.58873327225441,
    "lng":  -3.326003271778924
  },
  "106": {
    "name": "Train Station",
    "label": "Train",
    "welsh_name": "Gorsaf Tren",
    "lat": 51.59196879020068, 
    "lng": -3.325058570481337
  },
  "107": {
    "name": "Automated external defibrillator (AED)",
    "label": "Automated",
    "welsh_name": "Diffibriliwr allanol awtomataidd",
    "lat": 51.588707,
    "lng": -3.328815
  },





  "200": {
    "name": "Bus Stop 1",
    "label": "Bus1",
    "welsh_name": "Arhosfan Bysiau",
    "lat": 51.59198045961304, 
    "lng":  -3.3247900993849835
  },
  "201": {
    "name": "Bus Stop 2",
    "label": "Bus2",
    "welsh_name": "Arhosfan Bysiau",
    "lat": 51.59037856136665, 
    "lng":  -3.3267359719666723
  },
  "202": {
    "name": "Bus Stop 3",
    "label": "Bus 3",
    "welsh_name": "Arhosfan Bysiau",
    "lat": 51.589528933549225, 
    "lng":  -3.325368439234802
  },




  "300": {
    "name": "Coffee Shop 1",
    "label": "Coffee1",
    "welsh_name": "Siop Coffi",
    "lat": 51.58910792507517, 
    "lng": -3.3292595575943396
  },
  "301": {
    "name": "Coffee Shop 2",
    "label": "Coffee2",
    "welsh_name": "Siop Coffi",
    "lat": 51.58838766560311,
    "lng":  -3.326122708085253
  },
  "303": {
    "name": "Coffee Shop 3",
    "label": "Coffee3",
    "welsh_name": "Siop Coffi",
    "lat": 51.58947911873521, 
    "lng": -3.327785174174766
  },




  "400": {
    "name": "Pedestrian Entrance 1",
    "label": "Entrance1",
    "welsh_name": "Mynedfa Cerddwyr",
    "lat": 51.59017507898254, 
    "lng": -3.326824705201834
  },
  "401": {
    "name": "Pedestrian Entrance 2",
    "label": "Entrance2",
    "welsh_name": "Mynedfa Cerddwyr",
    "lat": 51.58877131682116, 
    "lng": -3.3253905269679054
  },
  "402": {
    "name": "Pedestrian Entrance 3",
    "label": "Entrance3",
    "welsh_name": "Mynedfa Cerddwyr",
    "lat": 51.587372502841816, 
    "lng": -3.326215350675251 
  },



  "600": {
    "name": "Places to Eat 1",
    "label": "Places1",
    "welsh_name": "Lleoedd i Fwyta",
    "lat": 51.58908008836048, 
    "lng": -3.32917390927025
  },
  "601": {
    "name": "Places to Eat 2",
    "label": "Places2",
    "welsh_name": "Lleoedd i Fwyta",
    "lat":  51.588375607441954,
    "lng":  -3.3260788017757847
  }



  
}